#Time,Rho,X,Z,Alt,AoA,GSE,LUE,Vtot,Vy,Gamma,Pitch,Roll,Yaw,Step,Grade,Points,Details
0.00,0.704,1466.2,29.7,303.4,8.07,0.33,-7.77,132.1,-663.2,28.9,4.7,-22.5,-0.1,X0,OK,4.0,    
0.50,0.690,1440.3,44.5,297.8,8.32,0.33,-7.12,134.9,-670.3,26.7,4.7,-25.2,-0.1,X0,OK,4.0,    
1.00,0.676,1413.0,58.5,292.3,8.15,0.33,-6.48,137.9,-661.5,24.2,4.3,-28.8,-0.1,X0,OK,4.0,    
1.50,0.661,1385.0,71.1,286.5,7.89,0.34,-5.87,135.6,-715.7,22.5,4.0,-29.2,-0.0,X0,OK,4.0,    
2.00,0.646,1357.2,82.4,280.3,7.65,0.33,-5.29,134.5,-765.6,21.1,3.8,-28.5,-0.0,X0,OK,4.0,    
2.50,0.632,1329.3,92.6,273.6,7.81,0.32,-4.74,133.2,-846.3,19.4,3.6,-28.3,-0.0,X0,OK,4.0,    
3.00,0.617,1301.3,101.5,266.3,8.07,0.30,-4.22,133.5,-900.0,17.5,3.7,-28.2,-0.0,X0,OK,4.0,    
3.50,0.602,1272.6,109.3,258.6,8.00,0.28,-3.73,135.1,-934.6,15.7,3.7,-28.4,-0.0,X0,OK,4.0,    
4.00,0.587,1243.7,115.9,250.7,8.08,0.25,-3.27,133.6,-973.6,13.9,3.6,-27.8,-0.0,X0,OK,4.0,    
4.50,0.571,1214.6,121.2,242.4,8.05,0.22,-2.85,135.2,-1012.7,12.3,3.6,-25.4,-0.0,X0,OK,4.0,    
5.00,0.555,1184.7,125.4,234.1,7.92,0.19,-2.47,138.0,-955.2,11.5,4.0,-20.9,-0.0,X0,OK,4.0,    
5.50,0.540,1154.5,128.8,226.4,7.85,0.16,-2.11,136.0,-914.0,10.3,4.1,-19.1,-0.0,X0,OK,4.0,    
6.00,0.524,1125.0,131.2,218.8,7.80,0.14,-1.78,133.1,-908.1,9.2,4.0,-17.1,-0.0,X0,OK,4.0,    
6.50,0.509,1096.1,132.9,211.2,7.84,0.11,-1.48,131.4,-912.1,8.0,4.0,-17.3,-0.0,X0,OK,4.0,    
7.00,0.493,1067.2,133.8,203.6,8.13,0.08,-1.20,133.1,-913.0,6.4,4.2,-19.1,-0.0,X0,OK,4.0,    
7.50,0.477,1037.5,133.7,196.2,8.27,0.05,-0.96,136.9,-842.3,4.7,4.6,-20.9,-0.0,X0,OK,4.0,    
8.00,0.461,1006.8,132.6,189.6,7.98,0.05,-0.76,140.0,-748.2,3.2,4.7,-21.3,-0.0,X0,OK,4.0,    
8.50,0.444,976.1,130.4,183.6,7.77,0.05,-0.61,137.0,-712.1,2.2,4.5,-20.1,0.0,X0,OK,4.0,    
9.00,0.428,946.4,127.4,177.6,7.76,0.05,-0.52,133.6,-729.4,1.7,4.6,-15.4,0.0,X0,OK,4.0,    
9.50,0.412,917.6,123.9,171.5,8.06,0.05,-0.46,131.4,-729.9,1.6,4.9,-9.2,0.0,X0,OK,4.0,    
10.00,0.397,889.2,120.0,165.4,8.56,0.04,-0.43,129.8,-746.7,1.4,5.3,-1.8,-0.0,XX,OK,4.0,    
10.50,0.382,861.2,116.1,159.3,8.47,0.03,-0.40,128.1,-717.6,2.2,5.4,3.3,-0.0,IM,OK,4.0,    
11.00,0.367,833.6,112.5,153.3,7.98,0.03,-0.36,127.7,-717.5,2.6,5.0,3.9,-0.0,IM,OK,4.0,    
11.50,0.351,805.7,108.9,147.2,7.95,0.02,-0.30,129.4,-726.7,2.1,5.0,0.0,-0.0,IM,OK,4.0,    
12.00,0.336,777.2,105.2,141.5,7.99,0.02,-0.25,132.3,-645.9,1.0,5.3,-4.4,-0.0,IM,OK,4.0,    
12.50,0.320,748.4,101.0,136.4,7.78,0.04,-0.22,131.0,-597.5,0.6,5.4,-6.0,-0.0,IM,OK,4.0,    
13.00,0.305,720.5,96.7,131.3,7.76,0.06,-0.21,127.6,-623.0,0.8,5.3,-4.8,0.0,IM,OK,4.0,    
13.50,0.290,693.2,92.3,125.9,7.89,0.06,-0.22,125.3,-676.8,1.3,5.2,-1.4,0.0,IM,OK,4.0,    
14.00,0.275,666.5,88.1,120.0,7.96,0.05,-0.22,123.7,-744.7,1.6,5.1,0.3,-0.0,IM,OK,4.0,    
14.50,0.261,640.0,83.9,113.4,8.14,0.02,-0.22,123.5,-821.2,1.4,4.9,-1.1,-0.0,IM,OK,4.0,    
15.00,0.246,613.3,79.7,106.4,8.19,-0.03,-0.23,125.5,-856.6,1.0,4.7,-3.3,0.0,IC,OK,4.0,    
15.50,0.231,585.8,75.1,99.3,8.32,-0.09,-0.26,129.5,-828.2,0.8,5.1,-2.7,0.0,IC,OK,4.0,    
16.00,0.216,557.3,70.3,92.8,8.05,-0.12,-0.30,132.6,-736.4,0.9,5.3,-0.6,0.0,IC,OK,4.0,    
16.50,0.200,528.8,65.5,86.8,7.86,-0.13,-0.35,129.9,-716.5,1.1,5.1,2.7,-0.0,IC,OK,4.0,    
17.00,0.185,501.1,60.9,80.7,7.95,-0.16,-0.39,127.1,-742.2,1.9,5.0,6.7,-0.0,IC,OK,4.0,    
17.50,0.170,473.5,56.8,74.5,8.35,-0.20,-0.38,129.2,-748.1,2.0,5.4,5.6,-0.0,IC,OK,4.0,    
18.00,0.154,445.0,52.7,68.6,8.37,-0.22,-0.33,132.8,-666.1,1.3,5.8,-0.2,-0.0,IC,OK,4.0,    
18.50,0.139,416.2,48.4,63.2,7.88,-0.22,-0.29,130.6,-638.0,1.0,5.4,-3.1,-0.0,IC,OK,4.0,    
19.00,0.123,388.3,44.1,57.8,7.81,-0.22,-0.29,128.0,-661.3,1.2,5.4,-2.3,-0.0,IC,OK,4.0,    
19.50,0.108,360.6,39.8,52.3,7.91,-0.23,-0.30,129.1,-639.3,1.2,5.5,-1.6,-0.0,IC,OK,4.0,    
20.00,0.093,332.2,35.3,47.2,7.65,-0.22,-0.31,132.2,-598.5,1.4,5.4,-0.9,0.0,IC,OK,4.0,    
20.50,0.077,303.4,30.8,42.4,7.87,-0.16,-0.33,132.1,-557.0,1.6,5.6,-0.1,0.0,IC,OK,4.0,    
21.00,0.061,275.0,26.3,37.8,7.85,-0.08,-0.35,129.5,-562.0,1.7,5.6,0.1,0.0,IC,OK,4.0,    
21.50,0.046,247.0,21.9,33.0,7.86,-0.00,-0.38,129.4,-581.2,1.7,5.5,0.4,0.0,IC,OK,4.0,    
22.00,0.031,218.9,17.5,28.1,7.90,0.11,-0.41,129.5,-581.1,1.4,5.6,0.3,-0.0,AR,OK,4.0,    
22.50,0.016,191.1,13.1,23.2,8.14,0.25,-0.46,127.5,-612.3,1.2,5.4,-0.1,-0.0,AR,OK,4.0,    
23.00,-0.001,163.8,8.8,17.9,7.93,0.38,-0.57,126.4,-665.9,1.2,5.2,0.8,-0.0,AR,OK,4.0,    
23.50,-0.014,136.4,4.5,12.1,7.73,0.54,-0.76,127.2,-699.2,1.3,5.0,1.3,-0.0,AR,OK,4.0,    
24.00,-0.029,109.0,0.3,6.2,6.80,0.87,-1.19,127.0,-728.5,1.3,4.0,0.9,-0.0,AR,OK,4.0,    
24.50,-0.044,81.4,-4.0,1.3,6.05,3.42,-174.73,127.8,-746.9,1.3,3.2,-0.8,-0.0,AR,OK,4.0,    
25.00,-0.060,53.6,-8.3,-0.3,5.13,-3.66,-179.76,127.9,-633.6,1.4,2.6,-0.6,-0.0,AR,OK,4.0,    
25.50,-0.074,26.8,-12.2,-0.3,1.77,-3.60,179.77,124.7,-232.0,1.8,0.7,-0.3,-0.0,AR,OK,4.0,    
