#Time,Rho,X,Z,Alt,AoA,GSE,LUE,Vtot,Vy,Gamma,Pitch,Roll,Yaw,Step,Grade,Points,Details
0.00,0.905,1540.1,-906.0,324.1,9.93,-0.20,-30.38,97.8,-196.8,88.0,9.1,-15.0,-0.0,X0,OK,4.0,    
0.50,0.899,1543.8,-880.8,322.5,9.91,-0.20,-29.58,97.6,-180.2,86.4,9.0,-13.7,-0.0,X0,OK,4.0,    
1.00,0.894,1547.0,-855.8,321.0,10.05,-0.20,-28.79,97.4,-171.6,85.1,8.9,-13.8,-0.0,X0,OK,4.0,    
1.50,0.888,1549.7,-830.8,319.6,9.66,-0.20,-28.00,97.2,-167.5,83.8,8.8,-14.6,-0.0,X0,OK,4.0,    
2.00,0.883,1551.6,-805.8,318.3,9.54,-0.19,-27.21,96.9,-161.8,82.6,8.7,-14.7,-0.0,X0,OK,4.0,    
2.50,0.877,1553.0,-781.0,316.9,9.29,-0.19,-26.43,96.7,-156.0,81.3,8.5,-14.1,-0.0,X0,OK,4.0,    
3.00,0.871,1553.8,-756.4,315.6,9.06,-0.19,-25.65,96.4,-181.2,80.2,8.3,-13.2,-0.0,X0,OK,4.0,    
3.50,0.865,1554.1,-731.8,313.9,9.04,-0.19,-24.87,96.2,-212.0,79.1,8.1,-12.4,-0.0,X0,OK,4.0,    
4.00,0.859,1553.9,-707.4,312.0,8.87,-0.19,-24.09,96.0,-233.0,78.2,7.9,-12.2,-0.0,X0,OK,4.0,    
4.50,0.853,1553.2,-683.1,310.0,8.74,-0.19,-23.31,95.9,-261.9,77.2,7.8,-13.2,-0.0,X0,OK,4.0,    
5.00,0.847,1552.0,-658.9,307.7,8.62,-0.20,-22.54,95.9,-282.7,76.0,7.7,-15.4,0.0,X0,OK,4.0,    
5.50,0.841,1550.2,-634.8,305.3,8.60,-0.21,-21.77,95.9,-303.3,74.5,7.7,-17.0,0.0,X0,OK,4.0,    
6.00,0.834,1547.7,-610.9,302.7,8.68,-0.22,-21.00,95.9,-318.6,72.7,7.6,-16.9,0.0,X0,OK,4.0,    
6.50,0.828,1544.6,-587.2,300.0,9.04,-0.23,-20.23,95.9,-327.2,70.9,7.6,-16.7,0.0,X0,OK,4.0,    
7.00,0.821,1540.9,-563.6,297.3,9.40,-0.24,-19.47,96.0,-328.3,69.0,7.9,-17.3,0.0,X0,OK,4.0,    
7.50,0.814,1536.4,-540.3,294.6,9.56,-0.25,-18.71,95.9,-314.9,67.2,8.2,-17.0,0.0,X0,OK,4.0,    
8.00,0.808,1531.3,-517.2,292.0,9.75,-0.25,-17.96,95.9,-294.7,65.4,8.3,-15.9,-0.0,X0,OK,4.0,    
8.50,0.801,1525.5,-494.4,289.6,10.15,-0.26,-17.21,95.7,-281.9,63.7,8.4,-14.4,-0.0,X0,OK,4.0,    
9.00,0.793,1519.3,-471.9,287.4,10.38,-0.26,-16.46,95.5,-255.6,62.3,8.6,-13.2,-0.0,X0,OK,4.0,    
9.50,0.786,1512.5,-449.6,285.4,10.48,-0.26,-15.72,95.4,-224.9,61.1,8.7,-12.9,-0.0,X0,OK,4.0,    
10.00,0.779,1505.2,-427.6,283.6,10.35,-0.26,-14.98,95.2,-200.5,60.0,8.9,-13.7,-0.0,X0,OK,4.0,    
10.50,0.772,1497.4,-405.9,282.0,10.08,-0.26,-14.25,95.0,-192.5,58.9,9.0,-15.6,0.0,X0,OK,4.0,    
11.00,0.764,1489.1,-384.6,280.4,10.05,-0.25,-13.52,94.9,-181.3,57.5,9.4,-19.0,0.0,X0,OK,4.0,    
11.50,0.756,1480.0,-363.7,279.0,10.17,-0.24,-12.80,94.8,-157.5,55.6,9.6,-21.6,0.0,X0,OK,4.0,    
12.00,0.749,1470.3,-343.2,277.8,10.21,-0.23,-12.09,94.7,-133.9,53.2,9.6,-21.3,0.0,X0,OK,4.0,    
12.50,0.741,1459.9,-323.3,276.7,9.95,-0.21,-11.39,94.5,-125.2,50.6,9.1,-19.2,0.0,X0,OK,4.0,    
13.00,0.732,1448.8,-303.9,275.5,9.92,-0.20,-10.70,94.2,-176.3,48.3,8.6,-17.9,-0.0,X0,OK,4.0,    
13.50,0.724,1437.3,-285.0,273.8,9.71,-0.19,-10.02,93.8,-233.6,46.6,8.2,-18.6,-0.0,X0,OK,4.0,    
14.00,0.716,1425.2,-266.7,271.7,9.66,-0.19,-9.36,93.7,-284.5,45.2,7.9,-18.7,-0.0,X0,OK,4.0,    
14.50,0.707,1412.6,-248.9,269.1,10.19,-0.19,-8.70,93.6,-319.8,43.8,8.1,-16.9,-0.0,X0,OK,4.0,    
15.00,0.699,1399.5,-231.5,266.4,10.38,-0.19,-8.06,93.5,-336.6,42.5,8.3,-15.8,0.0,X0,OK,4.0,    
15.50,0.690,1385.9,-214.7,263.5,10.46,-0.20,-7.42,93.4,-343.2,41.2,8.4,-16.7,0.0,X0,OK,4.0,    
16.00,0.681,1371.9,-198.3,260.7,10.26,-0.20,-6.79,93.3,-346.3,39.9,8.3,-18.7,0.0,X0,OK,4.0,    
16.50,0.672,1357.4,-182.6,257.7,9.92,-0.21,-6.18,93.2,-374.9,38.3,8.1,-20.0,0.0,X0,OK,4.0,    
17.00,0.663,1342.4,-167.4,254.4,9.98,-0.21,-5.58,93.2,-412.7,36.4,8.0,-19.6,0.0,X0,OK,4.0,    
17.50,0.654,1326.9,-152.9,250.8,10.43,-0.23,-4.99,93.2,-450.4,34.3,8.1,-18.1,0.0,X0,OK,4.0,    
18.00,0.644,1311.0,-139.0,247.0,10.87,-0.24,-4.41,93.2,-472.5,32.4,8.2,-17.1,0.0,X0,OK,4.0,    
18.50,0.635,1294.7,-125.6,243.0,10.86,-0.26,-3.85,93.1,-481.5,30.7,8.3,-17.4,0.0,X0,OK,4.0,    
19.00,0.625,1278.0,-112.9,239.0,10.54,-0.28,-3.30,93.1,-460.5,29.0,8.3,-17.5,0.0,X0,OK,4.0,    
19.50,0.615,1260.9,-100.8,235.3,10.18,-0.29,-2.77,93.1,-444.7,27.4,8.1,-16.7,0.0,X0,OK,4.0,    
20.00,0.605,1243.4,-89.3,231.6,9.97,-0.31,-2.25,93.2,-444.2,25.8,8.1,-17.2,0.0,X0,OK,4.0,    
20.50,0.595,1225.6,-78.4,227.9,10.20,-0.32,-1.75,93.3,-429.1,24.2,8.5,-20.5,0.0,X0,OK,4.0,    
21.00,0.585,1207.4,-68.4,224.5,10.06,-0.33,-1.28,93.5,-394.9,22.3,8.9,-24.8,0.1,XX,OK,4.0,    
21.50,0.575,1188.6,-59.3,221.3,9.73,-0.33,-0.83,93.8,-374.0,19.9,9.1,-27.4,0.1,XX,OK,4.0,    
22.00,0.564,1169.4,-51.3,218.2,9.42,-0.33,-0.43,94.1,-347.7,16.9,9.0,-27.9,0.1,XX,OK,4.0,    
22.50,0.554,1149.7,-44.3,215.6,9.30,-0.33,-0.07,94.5,-297.2,13.4,8.8,-26.2,0.1,XX,OK,4.0,(F)X    
23.00,0.543,1129.7,-38.5,213.2,9.78,-0.32,0.24,94.7,-268.2,9.8,8.7,-23.8,0.0,XX,OK,4.0,(F)X    
23.50,0.532,1109.3,-33.7,210.9,10.08,-0.30,0.51,94.6,-284.2,6.8,8.7,-23.6,0.0,XX,OK,4.0,(F)X    
24.00,0.521,1088.9,-29.9,208.6,9.87,-0.29,0.73,94.5,-281.0,4.7,8.7,-25.2,0.0,XX,OK,4.0,(F)X    
24.50,0.509,1068.2,-27.3,206.2,9.57,-0.27,0.90,94.6,-284.9,2.9,8.7,-25.4,0.0,XX,OK,4.0,(F)X    
25.00,0.498,1047.5,-25.7,203.8,9.82,-0.26,1.01,94.6,-291.9,0.9,8.8,-21.5,0.0,IM,OK,4.0,(F)X    
25.50,0.487,1026.8,-25.0,201.4,10.19,-0.25,1.07,94.3,-285.7,1.2,9.0,-14.6,0.0,IM,OK,4.0,(F)X    
26.00,0.476,1006.1,-25.0,199.1,10.27,-0.23,1.10,93.9,-275.2,2.7,9.2,-6.9,-0.0,IM,OK,4.0,(F)X    
26.50,0.465,985.6,-25.2,196.8,10.19,-0.21,1.11,93.3,-267.0,3.3,9.4,-1.6,-0.0,IM,OK,4.0,(F)X    
27.00,0.454,965.2,-25.6,194.5,9.92,-0.19,1.11,92.7,-288.4,3.1,9.2,0.4,-0.0,IM,OK,4.0,(F)X    
27.50,0.443,945.0,-26.0,192.0,10.22,-0.18,1.11,92.2,-313.3,2.5,9.0,0.3,-0.0,IM,OK,4.0,(F)X    
28.00,0.432,924.9,-26.4,189.3,10.14,-0.16,1.11,91.8,-325.9,1.8,8.8,-0.7,-0.0,IM,OK,4.0,(F)X    
28.50,0.421,904.9,-26.9,186.6,10.28,-0.15,1.10,91.6,-316.4,1.4,8.6,-2.5,0.0,IM,OK,4.0,(F)X    
29.00,0.410,884.9,-27.5,184.1,10.04,-0.14,1.09,91.5,-303.7,1.2,8.5,-4.5,0.0,IM,OK,4.0,(F)X    
29.50,0.400,865.0,-28.3,181.5,10.11,-0.12,1.06,91.3,-323.5,1.3,8.6,-5.2,0.0,IM,OK,4.0,(F)X    
30.00,0.389,845.2,-29.2,178.8,10.42,-0.11,1.01,90.5,-308.3,1.7,8.7,-3.4,0.0,IM,OK,4.0,(F)X    
30.50,0.379,825.7,-30.3,176.3,10.53,-0.09,0.96,88.5,-292.3,2.3,8.7,-1.2,0.0,IM,OK,4.0,(F)X    
31.00,0.368,806.8,-31.4,173.9,10.47,-0.07,0.90,86.3,-302.2,2.7,8.5,0.2,0.0,IM,OK,4.0,(F)X    
31.50,0.358,788.4,-32.4,171.3,10.32,-0.06,0.84,84.7,-301.3,2.9,8.4,0.9,-0.0,IM,OK,4.0,(F)X    
32.00,0.349,770.3,-33.4,169.0,9.71,-0.04,0.78,83.2,-262.2,2.9,8.3,1.1,-0.0,IM,OK,4.0,(F)X    
32.50,0.339,752.7,-34.4,166.9,9.48,-0.02,0.72,81.8,-242.4,2.8,8.3,0.9,-0.0,IM,OK,4.0,(F)X    
33.00,0.330,735.4,-35.3,164.8,9.76,0.00,0.66,80.3,-259.5,2.6,8.4,0.6,-0.0,IM,OK,4.0,(F)X    
33.50,0.321,718.5,-36.2,162.5,10.30,0.02,0.60,78.9,-291.8,2.4,8.5,0.2,-0.0,IM,OK,4.0,(F)X    
34.00,0.312,702.0,-37.1,160.0,10.64,0.03,0.54,77.5,-321.9,2.3,8.6,0.4,0.0,IM,OK,4.0,(F)X    
34.50,0.303,685.8,-37.9,157.2,11.12,0.03,0.47,76.1,-332.4,2.1,8.6,0.7,0.0,IM,OK,4.0,(F)X    
35.00,0.295,670.0,-38.7,154.5,11.54,0.03,0.41,74.8,-334.6,2.0,8.6,1.5,-0.0,IM,OK,4.0,(F)X    
35.50,0.286,654.5,-39.4,151.7,11.71,0.03,0.35,73.5,-321.1,1.8,8.6,1.9,-0.0,IM,OK,4.0,(F)X    
36.00,0.278,639.3,-40.0,149.1,11.78,0.03,0.30,72.2,-313.6,1.7,8.6,1.7,-0.0,IM,OK,4.0,(F)X    
36.50,0.270,624.4,-40.5,146.5,11.85,0.02,0.25,71.0,-318.8,1.5,8.6,1.4,-0.0,IM,OK,4.0,(F)X    
37.00,0.262,609.9,-41.0,143.8,11.87,0.02,0.21,69.8,-306.0,1.4,8.6,0.9,-0.0,IM,OK,4.0,(F)X    
37.50,0.255,595.6,-41.5,141.5,11.43,0.02,0.17,68.7,-263.7,1.3,8.7,0.4,0.0,IM,OK,4.0,(F)X    
38.00,0.247,581.6,-41.9,139.4,11.06,0.04,0.12,67.6,-233.2,1.2,8.8,-0.2,0.0,IC,OK,4.0,(F)X    
38.50,0.240,567.9,-42.3,137.5,11.13,0.05,0.08,66.6,-227.2,1.1,8.8,-0.8,0.0,IC,OK,4.0,(F)X    
39.00,0.233,554.5,-42.7,135.6,11.14,0.07,0.03,65.5,-232.8,1.0,8.8,-0.9,0.0,IC,OK,4.0,(F)X    
39.50,0.226,541.4,-43.2,133.6,11.32,0.08,-0.03,64.5,-244.3,1.0,8.8,-0.4,0.0,IC,OK,4.0,(F)X    
40.00,0.219,528.5,-43.7,131.5,11.13,0.09,-0.09,63.5,-257.6,1.0,8.8,0.6,0.0,IC,OK,4.0,(F)X    
40.50,0.212,515.8,-44.1,129.4,11.33,0.09,-0.15,62.6,-261.5,1.1,8.7,1.7,0.0,IC,OK,4.0,(F)X    
41.00,0.205,503.4,-44.5,127.1,11.48,0.09,-0.20,61.7,-275.0,1.1,8.6,2.3,-0.0,IC,OK,4.0,(F)X    
41.50,0.199,491.2,-44.8,124.7,11.55,0.08,-0.24,60.8,-297.5,1.0,8.4,2.4,-0.0,IC,OK,4.0,(F)X    
42.00,0.192,479.2,-45.0,122.2,11.51,0.06,-0.28,60.1,-321.0,0.8,8.3,2.1,-0.0,IC,OK,4.0,(F)X    
42.50,0.186,467.4,-45.1,119.4,11.35,0.03,-0.30,59.3,-329.5,0.6,8.2,2.0,-0.0,IC,OK,4.0,(F)X    
43.00,0.180,455.8,-45.1,116.8,10.95,0.00,-0.31,58.5,-311.4,0.4,8.1,2.1,-0.0,IC,OK,4.0,(F)X    
43.50,0.174,444.4,-45.1,114.2,10.51,-0.02,-0.31,57.8,-303.6,0.2,8.1,1.8,-0.0,IC,OK,4.0,(F)X    
44.00,0.168,433.2,-44.9,111.7,10.64,-0.05,-0.30,57.1,-300.9,0.0,8.1,1.1,-0.0,IC,OK,4.0,(F)X    
44.50,0.162,422.2,-44.8,109.2,10.85,-0.09,-0.29,56.3,-307.5,0.2,8.1,0.2,-0.0,IC,OK,4.0,(F)X    
45.00,0.156,411.4,-44.6,106.6,11.07,-0.13,-0.27,55.6,-316.1,0.3,8.1,-0.6,-0.0,IC,OK,4.0,(F)X    
45.50,0.150,400.7,-44.4,103.9,11.62,-0.17,-0.25,55.0,-324.8,0.4,8.1,-0.5,-0.0,IC,OK,4.0,(F)X    
46.00,0.145,390.2,-44.3,101.2,12.08,-0.23,-0.23,54.3,-324.9,0.4,8.2,0.9,-0.0,IC,OK,4.0,(F)X    
46.50,0.139,379.9,-44.1,98.5,11.98,-0.29,-0.20,53.6,-315.0,0.5,8.1,2.0,-0.0,IC,OK,4.0,(F)X    
47.00,0.134,369.8,-43.8,95.9,11.58,-0.35,-0.16,53.0,-304.7,0.6,8.0,2.3,-0.0,IC,OK,4.0,(F)X    
47.50,0.128,359.8,-43.5,93.4,11.33,-0.40,-0.09,52.4,-296.0,0.8,7.9,2.0,-0.0,IC,OK,4.0,(F)X    
48.00,0.123,350.0,-43.1,90.9,11.44,-0.47,-0.01,51.8,-301.1,1.1,7.9,1.2,-0.0,IC,OK,4.0,(F)X    
48.50,0.118,340.3,-42.6,88.4,11.61,-0.54,0.08,51.2,-302.1,1.4,8.0,-0.1,-0.0,IC,OK,4.0,(F)X    
49.00,0.113,330.8,-42.2,85.9,11.99,-0.61,0.18,50.6,-297.4,1.6,8.1,-1.9,0.0,IC,OK,4.0,(F)X   (LO)IC 
49.50,0.108,321.4,-41.8,83.5,11.96,-0.70,0.27,50.1,-291.4,1.7,8.2,-3.4,0.0,IC,OK,4.0,(F)X   (LO) (DR)IC 
50.00,0.103,312.2,-41.6,81.2,11.38,-0.77,0.33,49.5,-244.7,1.6,8.3,-4.0,0.0,IC,OK,4.0,(F)X   (LO) DRIC 
50.50,0.098,303.1,-41.6,79.3,10.79,-0.82,0.35,48.9,-201.4,1.4,8.4,-3.1,0.0,IC,OK,4.0,(F)X   (LO) DRIC 
51.00,0.093,294.1,-41.6,77.8,10.19,-0.85,0.35,48.3,-168.5,1.2,8.5,-1.2,0.0,IC,OK,4.0,(F)X   (LO) DRIC 
51.50,0.088,285.3,-41.7,76.4,10.17,-0.88,0.34,47.7,-159.6,0.9,8.6,0.2,0.0,IC,OK,4.0,(F)X   (LO) DRIC 
52.00,0.084,276.7,-41.8,75.1,10.46,-0.90,0.32,47.1,-166.6,0.8,8.7,0.2,0.0,IC,OK,4.0,(F)X   (LO) DRIC 
52.50,0.079,268.2,-41.9,73.7,10.56,-0.93,0.31,46.5,-165.4,0.6,8.8,-0.9,0.0,IC,OK,4.0,(F)X   (LO) DRIC 
53.00,0.075,259.8,-42.1,72.4,10.55,-0.97,0.28,45.8,-162.4,0.4,8.8,-1.8,0.0,IC,OK,4.0,(F)X   (LO) DRIC 
53.50,0.071,251.7,-42.3,71.0,10.44,-1.00,0.22,45.3,-163.5,0.2,8.8,-2.0,0.0,IC,OK,4.0,(F)X   (LO) DRIC 
54.00,0.067,243.7,-42.6,69.6,10.49,-1.05,0.14,44.7,-167.7,0.0,8.8,-2.0,0.0,IC,OK,4.0,(F)X   (LO) DRIC 
54.50,0.063,235.8,-43.0,68.2,10.33,-1.10,0.02,44.1,-158.7,0.2,8.8,-1.7,0.0,IC,OK,4.0,(F)X   (LO) DRIC 
55.00,0.059,228.1,-43.4,67.0,10.12,-1.14,-0.14,43.5,-131.8,0.5,8.8,-1.3,0.0,IC,OK,4.0,(F)X   (LO) DRIC 
55.50,0.055,220.5,-43.9,66.0,10.42,-1.17,-0.32,43.0,-114.8,0.7,8.8,-0.7,0.0,IC,OK,4.0,(F)X   (LO) DRIC 
56.00,0.051,213.1,-44.4,65.1,11.20,-1.18,-0.54,42.4,-108.0,0.9,8.9,-0.1,0.0,IC,OK,4.0,(F)X   (LO) DLIC 
56.50,0.048,205.8,-44.9,64.2,11.36,-1.20,-0.77,41.8,-106.9,1.1,9.1,0.4,0.0,IC,OK,4.0,(F)X   (LO) DLIC 
57.00,0.045,198.7,-45.3,63.3,11.55,-1.23,-1.03,41.2,-116.7,1.2,9.3,0.1,0.0,IC,OK,4.0,(F)X   LO DLIC 
57.50,0.041,191.8,-45.8,62.3,11.34,-1.27,-1.31,40.6,-117.8,1.3,9.2,-0.9,0.0,IC,OK,4.0,(F)X   LO DLIC 
58.00,0.038,184.9,-46.3,61.3,10.98,-1.31,-1.64,40.0,-119.6,1.4,9.3,-1.5,0.0,AR,OK,4.0,(F)X   LO DLIC 
58.50,0.036,178.3,-46.9,60.3,11.27,-1.37,-2.03,39.5,-117.7,1.6,9.4,-1.5,0.0,AR,OK,4.0,(F)X   LO DLIC LOAR
59.00,0.033,171.8,-47.5,59.5,10.71,-1.41,-2.49,38.9,-72.0,1.8,9.6,-1.0,0.0,AR,OK,4.0,(F)X   LO DLIC LOAR
59.50,0.031,165.4,-48.2,59.0,10.41,-1.39,-3.03,38.2,-41.5,2.0,9.7,-0.3,0.0,AR,OK,4.0,(F)X   LO DLIC LOAR
60.00,0.029,159.2,-48.8,58.8,10.22,-1.32,-3.64,37.6,-15.8,2.2,9.8,0.3,0.0,AR,OK,4.0,(F)X   LO DLIC LOAR
60.50,0.027,153.2,-49.4,58.7,10.10,-1.22,-4.32,37.0,-3.8,2.3,9.8,0.9,0.0,AR,OK,4.0,(F)X   LO DLIC LOAR
61.00,0.026,147.3,-50.0,58.6,9.97,-1.10,-5.04,36.4,-14.9,2.4,9.8,1.5,0.0,AR,OK,4.0,(F)X   LO DLIC LOAR
61.50,0.025,141.6,-50.5,58.4,10.26,-1.01,-5.82,35.5,-42.2,2.5,10.0,2.0,-0.0,AR,OK,4.0,(F)X   LO DLIC LOAR
62.00,0.024,136.3,-50.9,57.9,11.28,-1.01,-6.59,32.5,-104.3,2.5,10.1,2.4,-0.0,AR,OK,4.0,(F)X   LO DLIC LOAR
62.50,0.024,132.0,-51.2,56.7,12.45,-1.17,-7.26,28.8,-155.2,2.5,10.0,2.7,-0.0,AR,OK,4.0,(F)X   LO DLIC LOAR
63.00,0.023,128.6,-51.3,55.4,12.94,-1.46,-7.78,25.8,-171.5,2.4,9.8,2.6,-0.0,AR,OK,4.0,(F)X   LO DLIC LOAR
63.50,0.023,125.7,-51.3,54.0,12.82,-1.82,-8.14,24.2,-163.4,2.3,9.5,2.1,-0.1,AR,OK,4.0,(F)X   LO DLIC LOAR
64.00,-0.023,123.1,-51.2,52.7,12.62,-2.17,-8.41,24.0,-151.6,2.1,9.3,1.2,-0.1,AR,OK,4.0,(F)X   LO DLIC LOAR
64.50,-0.023,120.5,-51.0,51.4,12.93,-2.53,-8.68,24.2,-143.8,2.0,9.1,0.0,-0.1,AR,OK,4.0,(F)X   LO DLIC LOAR
65.00,-0.023,117.9,-50.9,50.2,13.38,-2.92,-8.98,24.0,-149.5,1.8,9.1,-0.8,-0.1,AR,OK,4.0,(F)X   LO DLIC LOAR
65.50,-0.024,115.3,-50.8,48.9,13.93,-3.39,-9.32,23.5,-156.8,1.8,9.2,-0.0,-0.0,AR,OK,4.0,(F)X   LO DLIC LOAR
66.00,-0.024,112.9,-50.6,47.6,14.43,-3.91,-9.67,23.1,-159.3,1.7,9.3,0.9,-0.1,AL,OK,4.0,(F)X   LO DLIC LOAR
66.50,-0.024,110.5,-50.5,46.3,14.08,-4.50,-9.98,22.7,-159.2,1.6,9.4,1.2,-0.1,AL,OK,4.0,(F)X   LO DLIC LOAR
67.00,-0.025,108.3,-50.3,45.0,14.76,-5.15,-10.24,22.4,-163.3,1.5,9.6,0.9,-0.1,AL,OK,4.0,(F)X   LO DLIC LOAR
67.50,-0.025,106.1,-50.0,43.6,14.21,-5.86,-10.45,22.0,-137.2,1.4,9.7,0.9,-0.1,AL,OK,4.0,(F)X   LO DLIC LOAR
68.00,-0.025,104.1,-49.7,42.9,13.09,-6.39,-10.59,21.6,-50.6,1.3,9.9,2.5,-0.1,AL,OK,4.0,(F)X   LO DLIC LOAR
68.50,-0.026,102.2,-49.3,42.6,11.99,-6.71,-10.52,21.2,-14.8,1.2,10.0,4.5,-0.1,AL,OK,4.0,(F)X   LO DLIC LOAR
69.00,-0.026,100.3,-48.7,42.5,11.03,-6.97,-10.06,20.8,-7.4,1.1,10.1,6.1,-0.2,AL,OK,4.0,(F)X   LO DLIC LOAR
69.50,-0.026,98.6,-47.9,42.5,9.86,-7.20,-9.04,20.5,7.7,0.9,10.2,6.9,-0.2,AL,OK,4.0,(F)X   LO DLIC LOAR
70.00,-0.026,97.0,-46.7,42.6,8.98,-7.39,-7.31,20.4,12.2,0.6,10.2,7.0,-0.3,AL,OK,4.0,(F)X   LO DLIC LOAR
70.50,-0.026,95.6,-45.3,42.5,10.37,-7.72,-4.77,20.2,-43.4,0.3,10.3,5.9,-0.3,AL,OK,4.0,(F)X   LO DLIC LOAR
71.00,-0.025,94.2,-43.7,42.0,12.16,-8.32,-1.45,20.0,-72.6,0.0,10.4,3.9,-0.4,AL,OK,4.0,(F)X   LO DLIC LOAR
71.50,-0.025,93.0,-41.9,41.5,11.83,-8.93,2.59,19.6,-41.4,0.2,10.3,1.8,-0.4,AL,OK,4.0,(F)X   LO DLIC LOAR
72.00,-0.025,91.9,-40.0,41.2,11.88,-9.32,7.14,19.2,-26.4,0.5,10.2,-0.5,-0.4,AL,OK,4.0,(F)X   LO DLIC LOAR
72.50,-0.025,90.9,-38.2,40.9,13.28,-9.76,11.92,18.8,-60.5,0.7,10.0,-2.2,-0.4,AL,OK,4.0,(F)X   LO DLIC LOAR
73.00,-0.024,90.0,-36.4,40.4,12.29,-10.27,16.67,18.3,-58.0,0.9,9.8,-2.5,-0.4,AL,OK,4.0,(F)X   LO DLIC LOAR
73.50,-0.024,89.2,-34.7,39.9,11.56,-10.66,21.26,17.8,-42.1,1.1,9.6,-1.8,-0.3,AL,OK,4.0,(F)X   LO DLIC LOAR
74.00,-0.024,88.5,-33.1,39.7,9.73,-10.81,25.62,17.4,-6.2,1.3,9.4,-1.8,-0.3,AL,OK,4.0,(F)X   LO DLIC LOAR
74.50,-0.024,87.9,-31.7,39.8,9.34,-10.75,29.66,17.0,9.2,1.6,9.3,-2.8,-0.3,AL,OK,4.0,(F)X   LO DLIC LOAR
75.00,-0.024,87.4,-30.3,39.8,10.33,-10.67,33.27,16.6,-17.1,1.8,9.1,-3.1,-0.3,AL,OK,4.0,(F)X   LO DLIC LOAR
75.50,-0.024,86.9,-29.0,39.6,10.22,-10.70,36.44,16.2,-15.1,1.9,9.0,-2.0,-0.3,AL,OK,4.0,(F)X   LO DLIC LOAR
76.00,-0.023,86.5,-27.9,39.5,9.65,-10.62,39.24,15.9,4.7,2.1,8.9,-1.3,-0.2,AL,OK,4.0,(F)X   LO DLIC LOAR
76.50,-0.023,86.1,-26.8,39.6,9.33,-10.41,41.79,15.7,16.9,2.2,8.7,-0.7,-0.2,AL,OK,4.0,(F)X   LO DLIC LOAR
77.00,-0.023,85.8,-25.8,39.8,9.22,-10.16,44.10,15.5,16.8,2.3,8.6,-0.3,-0.2,AL,OK,4.0,(F)X   LO DLIC LOAR
77.50,-0.023,85.5,-24.7,39.9,9.76,-9.94,46.22,15.3,8.2,2.5,8.4,-0.2,-0.2,AL,OK,4.0,(F)X   LO DLIC LOAR
78.00,-0.023,85.3,-23.7,39.9,10.32,-9.75,48.15,15.2,1.9,2.6,8.3,-0.4,-0.2,AL,OK,4.0,(F)X   LO DLIC LOAR
78.50,-0.023,85.1,-22.7,40.0,10.40,-9.59,49.90,15.0,-0.9,2.7,8.1,-0.5,-0.2,AL,OK,4.0,(F)X   LO DLIC LOAR
79.00,-0.023,84.9,-21.8,39.9,11.01,-9.49,51.51,14.9,-15.8,2.8,8.0,-0.3,-0.2,AL,OK,4.0,(F)X   LO DLIC LOAR
79.50,-0.023,84.7,-20.8,39.7,10.37,-9.44,52.99,14.8,-15.7,2.9,7.9,0.4,-0.2,AL,OK,4.0,(F)X   LO DLIC LOAR
80.00,-0.023,84.6,-19.9,39.6,9.62,-9.33,54.39,14.8,-2.1,3.0,7.8,0.7,-0.2,AL,OK,4.0,(F)X   LO DLIC LOAR
80.50,-0.023,84.4,-18.9,39.7,8.98,-9.16,55.72,14.8,6.9,3.1,7.6,0.6,-0.2,AL,OK,4.0,(F)X   LO DLIC LOAR
81.00,-0.023,84.3,-17.9,39.7,8.22,-8.98,57.01,14.8,1.6,3.2,7.5,0.2,-0.2,AL,OK,4.0,(F)X   LO DLIC LOAR
81.50,-0.023,84.2,-16.9,39.7,8.56,-8.86,58.23,14.8,-12.3,3.2,7.4,-0.5,-0.2,AL,OK,4.0,(F)X   LO DLIC LOAR
82.00,-0.023,84.0,-15.9,39.5,8.10,-8.79,59.39,14.9,-14.6,3.2,7.3,-0.9,-0.2,AL,OK,4.0,(F)X   LO DLIC LOAR
82.50,-0.023,83.9,-15.0,39.4,6.70,-8.71,60.49,14.9,-8.5,3.2,7.2,-1.1,-0.2,AL,OK,4.0,(F)X   LO DLIC LOAR
83.00,-0.023,83.7,-14.1,39.4,5.89,-8.61,61.51,14.9,-2.8,3.2,7.1,-1.6,-0.2,AL,OK,4.0,(F)X   LO DLIC LOAR
83.50,-0.023,83.5,-13.3,39.4,5.57,-8.52,62.48,14.9,-1.7,3.2,7.0,-2.1,-0.1,AL,OK,4.0,(F)X   LO DLIC LOAR
84.00,-0.023,83.2,-12.6,39.4,5.47,-8.44,63.39,15.0,-1.6,3.2,6.9,-2.1,-0.1,AL,OK,4.0,(F)X   LO DLIC LOAR
84.50,-0.023,83.0,-12.0,39.4,4.47,-8.37,64.25,15.1,4.8,3.2,6.8,-2.0,-0.1,AL,OK,4.0,(F)X   LO DLIC LOAR
85.00,-0.023,82.7,-11.4,39.4,4.61,-8.29,65.10,15.2,9.1,3.2,6.7,-2.0,-0.1,AL,OK,4.0,(F)X   LO DLIC LOAR
85.50,-0.023,82.3,-10.9,39.5,4.06,-8.21,65.94,15.3,7.6,3.1,6.6,-2.0,-0.0,AL,OK,4.0,(F)X   LO DLIC LOAR
86.00,-0.023,81.9,-10.6,39.6,3.46,-8.13,66.78,15.5,16.2,3.1,6.6,-1.5,-0.0,AL,OK,4.0,(F)X   LO DLIC LOAR
86.50,-0.024,81.5,-10.2,39.8,3.44,-8.03,67.63,15.6,25.6,3.0,6.5,-1.1,-0.0,AL,OK,4.0,(F)X   LO DLIC LOAR
87.00,-0.024,81.0,-10.0,40.0,2.57,-7.90,68.50,15.8,26.6,2.9,6.4,-1.0,-0.0,AL,OK,4.0,(F)X   LO DLIC LOAR
87.50,-0.024,80.5,-9.7,40.1,3.93,-7.84,69.43,16.0,0.5,2.8,6.3,-1.1,0.0,AL,OK,4.0,(F)X   LO DLIC LOAR
88.00,-0.024,79.9,-9.6,40.1,3.96,-7.85,70.43,16.2,-0.7,2.7,6.2,-1.2,0.0,AL,OK,4.0,(F)X   LO DLIC LOAR
88.50,-0.025,79.3,-9.4,40.1,5.30,-7.86,71.48,16.4,1.6,2.6,6.2,-1.2,0.0,AL,OK,4.0,(F)X   LO DLIC LOAR
89.00,-0.025,78.6,-9.3,40.1,5.98,-7.87,72.60,16.6,-1.6,2.5,6.2,-0.5,0.0,AL,OK,4.0,(F)X   LO DLIC LOAR
89.50,-0.025,77.8,-9.2,40.0,7.12,-7.93,73.79,16.8,-16.3,2.4,6.3,0.1,0.0,AL,OK,4.0,(F)X   LO DLIC LOAR
90.00,-0.026,77.0,-9.1,39.9,7.32,-8.03,75.07,16.9,-23.9,2.2,6.4,0.3,0.0,AL,OK,4.0,(F)X   LO DLIC LOAR
90.50,-0.026,76.2,-9.0,39.7,7.82,-8.16,76.43,17.1,-29.9,2.1,6.6,0.1,0.0,AL,OK,4.0,(F)X   LO DLIC LOAR
91.00,-0.027,75.3,-8.9,39.2,9.84,-8.39,77.85,17.2,-90.8,2.0,6.9,-0.3,0.0,AL,OK,4.0,(F)X   LO DLIC LOAR
91.50,-0.027,74.5,-8.8,38.0,12.87,-9.01,79.29,17.4,-212.9,1.9,7.3,-0.1,0.0,AL,OK,4.0,(F)X   LO DLIC LOAR
92.00,-0.028,73.6,-8.7,35.8,15.75,-10.12,80.76,17.5,-317.7,1.8,7.7,0.3,0.0,AL,OK,4.0,(F)X   LO DLIC LOAR
92.50,-0.028,72.7,-8.6,32.9,16.87,-11.55,82.21,17.5,-362.9,1.8,8.2,0.6,0.0,AL,OK,4.0,(F)X   LO DLIC LOAR
93.00,-0.029,71.9,-8.5,29.9,16.66,-13.02,83.62,17.4,-344.9,1.8,8.4,0.6,-0.0,AL,OK,4.0,(F)X   LO DLIC LOAR
93.50,-0.029,71.0,-8.4,27.2,15.38,-14.30,84.97,17.1,-297.1,1.8,8.6,0.5,-0.0,AL,OK,4.0,(F)X   LO DLIC LOAR
94.00,-0.030,70.3,-8.2,24.8,15.81,-15.40,86.24,16.9,-276.9,1.8,8.7,-0.0,-0.0,AL,OK,4.0,(F)X   LO DLIC LOAR
94.50,-0.030,69.6,-8.1,22.5,16.72,-16.45,87.43,16.7,-277.3,1.8,8.9,-1.2,0.0,AL,OK,4.0,(F)X   LO DLIC LOAR
95.00,-0.030,68.9,-7.9,20.1,18.16,-17.56,88.51,16.5,-313.4,1.8,9.0,-1.8,0.0,AL,OK,4.0,(F)X   LO DLIC LOAR
95.50,-0.031,68.3,-7.9,17.5,19.86,-18.78,89.51,16.3,-319.5,1.7,9.1,-0.6,0.0,AL,OK,4.0,(F)X   LO DLIC LOAR
96.00,-0.031,67.8,-7.9,14.8,20.31,-19.98,90.38,16.0,-312.8,1.7,9.2,0.7,0.0,AL,OK,4.0,(F)X   LO DLIC LOAR
96.50,-0.031,67.3,-7.8,12.2,19.72,-21.13,91.15,15.8,-308.5,1.7,9.2,1.5,-0.0,AL,OK,4.0,(F)X   LO DLIC LOAR
97.00,-0.031,66.9,-7.7,9.7,20.54,-22.20,91.80,15.5,-304.4,1.7,9.2,2.1,-0.0,AL,OK,4.0,(F)X   LO DLIC LOAR
97.50,-0.032,66.6,-7.5,7.1,20.71,-23.20,92.31,15.3,-301.3,1.7,9.2,2.5,-0.1,AL,OK,4.0,(F)X   LO DLIC LOAR
98.00,-0.032,66.3,-7.2,4.6,20.74,-24.13,92.70,15.0,-309.6,1.7,9.2,1.2,-0.1,AL,OK,4.0,(F)X   LO DLIC LOAR
98.50,-0.032,66.1,-6.9,2.1,20.26,-25.03,92.98,14.7,-301.2,1.8,9.2,-1.6,-0.0,AL,OK,4.0,(F)X   LO DLIC LOAR
99.00,-0.032,66.0,-6.7,-0.5,20.56,-25.92,93.17,14.5,-306.0,1.7,9.2,-3.4,0.0,AL,OK,4.0,(F)X   LO DLIC LOAR
99.50,-0.032,65.9,-6.6,-3.2,23.43,-26.95,93.26,14.6,-371.0,1.6,9.1,-2.4,0.0,AL,OK,4.0,(F)X   LO DLIC LOAR
100.00,-0.032,65.8,-6.5,-3.7,20.61,-27.11,93.43,14.7,-342.7,1.6,7.8,-1.4,0.0,AL,OK,4.0,(F)X   LO DLIC LOAR
